{
  "cities": {
    "Charlotte": {
      "latitude": 35.2271,
      "longitude": -80.8431,
      "county": "Mecklenburg",
      "zipcode": "28201"
    },
    "Raleigh": {
      "latitude": 35.7796,
      "longitude": -78.6382,
      "county": "Wake",
      "zipcode": "27601"
    },
    "Greensboro": {
      "latitude": 36.0726,
      "longitude": -79.7920,
      "county": "Guilford",
      "zipcode": "27401"
    },
    "Durham": {
      "latitude": 35.9940,
      "longitude": -78.8986,
      "county": "Durham",
      "zipcode": "27701"
    },
    "Winston-Salem": {
      "latitude": 36.0999,
      "longitude": -80.2442,
      "county": "Forsyth",
      "zipcode": "27101"
    },
    "Fayetteville": {
      "latitude": 35.0527,
      "longitude": -78.8784,
      "county": "Cumberland",
      "zipcode": "28301"
    },
    "Cary": {
      "latitude": 35.7915,
      "longitude": -78.7811,
      "county": "Wake",
      "zipcode": "27511"
    },
    "Wilmington": {
      "latitude": 34.2104,
      "longitude": -77.8868,
      "county": "New Hanover",
      "zipcode": "28401"
    },
    "High Point": {
      "latitude": 35.9557,
      "longitude": -80.0053,
      "county": "Guilford",
      "zipcode": "27260"
    },
    "Greenville": {
      "latitude": 35.6127,
      "longitude": -77.3664,
      "county": "Pitt",
      "zipcode": "27834"
    }
  }
}
